City_ID,City,Lat,Lng,Max Temp,Humidity,Cloudiness,Wind Speed,Country,Date
0,acapulco de juarez,16.8634,-99.8901,298.05,88,40,1.54,MX,1712121052
1,hermanus,-34.4187,19.2345,288.04,91,96,4.02,ZA,1712121263
2,sola,-13.8833,167.55,301.41,81,100,7.54,VU,1712121264
3,margaret river,-33.95,115.0667,296.7,38,0,1.62,AU,1712121074
4,santa rosa,14.3122,121.1114,307.1,60,9,6.89,PH,1712121027
5,chibougamau,49.9168,-74.3659,268.39,95,10,3.02,CA,1712121264
6,hirara,24.8,125.2833,297.68,90,2,9.95,JP,1712121264
7,sao gabriel da cachoeira,-0.1303,-67.0892,297.01,94,99,0.66,BR,1712121227
8,tiksi,71.6872,128.8694,256.04,89,100,1.66,RU,1712121265
9,georgetown,5.4112,100.3354,307.56,66,20,1.54,MY,1712121047
10,port-aux-francais,-49.35,70.2167,280.56,91,100,12.48,TF,1712121265
11,vallenar,-28.5708,-70.7581,291.76,71,0,1.31,CL,1712121266
12,grytviken,-54.2811,-36.5092,277.36,90,16,5.06,GS,1712121266
13,lebu,-37.6167,-73.65,284.81,87,70,2.46,CL,1712121266
14,adamstown,-25.066,-130.1015,297.19,72,100,10.35,PN,1712121147
15,smithers,54.7804,-127.1743,271.92,78,3,1.02,CA,1712121267
16,bubaque,11.2833,-15.8333,297.54,73,20,4.37,GW,1712121267
17,uturoa,-16.7333,-151.4333,301.63,74,87,7.77,PF,1712121267
18,feijo,-8.1642,-70.3536,296.2,98,57,0.57,BR,1712121267
19,ushuaia,-54.8,-68.3,274.96,80,0,3.6,AR,1712121013
20,howard springs,-12.497,131.047,304.1,87,46,5.19,AU,1712121268
21,brookings,44.3114,-96.7984,274.85,84,100,10.29,US,1712121045
22,invercargill,-46.4,168.35,290.17,63,100,4.02,NZ,1712121268
23,sanctuary point,-35.1114,150.629,295.0,68,60,4.35,AU,1712121268
24,klaksvik,62.2266,-6.589,272.66,59,100,10.8,FO,1712121268
25,sault ste. marie,46.5168,-84.3333,274.46,100,100,4.63,CA,1712121269
26,nahiyat al fuhud,30.9697,46.7228,298.66,20,86,3.67,IQ,1712121269
27,papatowai,-46.5619,169.4708,288.99,68,100,2.66,NZ,1712121269
28,sinabang,2.4803,96.3801,302.68,72,97,0.41,ID,1712121269
29,malvan,16.0667,73.4667,303.05,54,45,3.49,IN,1712121270
30,kodiak,57.79,-152.4072,272.88,37,0,2.57,US,1712121270
31,tamanrasset,22.785,5.5228,293.1,11,0,4.63,DZ,1712121270
32,karaton,-6.3424,106.1045,304.4,67,100,1.56,ID,1712121270
33,puerto ayora,-0.7393,-90.3518,297.34,97,87,0.89,EC,1712121270
34,south hedland,-20.4089,118.5983,312.11,19,0,9.26,AU,1712121271
35,fort bragg,35.139,-79.006,296.06,71,100,5.66,US,1712121271
36,ilulissat,69.2167,-51.1,264.16,79,79,1.03,GL,1712121271
37,hithadhoo,-0.6,73.0833,302.02,71,91,1.07,MV,1712121271
38,codrington,-38.2667,141.9667,288.98,56,94,4.25,AU,1712121271
39,gadzhiyevo,69.2551,33.3362,256.16,99,80,1.93,RU,1712121272
40,jamestown,42.097,-79.2353,282.99,97,100,5.14,US,1712121272
41,east london,-33.0153,27.9116,290.86,72,64,2.86,ZA,1712121272
42,levuka,50.1834,-105.4011,278.9,58,75,4.81,CA,1712121272
43,iskushuban,10.2837,50.23,299.0,70,47,2.52,SO,1712121272
44,lihue,21.9789,-159.3672,298.73,75,100,8.23,US,1712121021
45,gisborne,-38.6533,178.0042,292.74,69,1,4.17,NZ,1712121273
46,isafjordur,66.0755,-23.124,266.61,64,41,1.88,IS,1712121273
47,pokrovsk,48.282,37.1758,285.07,68,91,5.62,UA,1712121273
48,bethel,41.3712,-73.414,279.46,87,100,1.34,US,1712121274
49,shingu,33.7333,135.9833,287.83,96,100,3.43,JP,1712121274
50,esmeralda,21.8525,-78.1169,295.84,86,84,2.18,CU,1712121274
51,la passe,45.5549,-0.8967,286.28,89,76,8.68,FR,1712121274
52,olonkinbyen,70.9221,-8.7187,271.32,66,100,8.43,SJ,1712121274
53,punta arenas,-53.15,-70.9167,275.21,80,40,1.54,CL,1712121275
54,edinburgh of the seven seas,-37.0676,-12.3116,288.19,73,51,8.14,SH,1712121275
55,waitangi,-43.9535,-176.5597,288.05,88,100,1.34,NZ,1712121275
56,paragominas,-2.9667,-47.4833,296.2,99,100,0.97,BR,1712121008
57,puerto natales,-51.7236,-72.4875,276.33,76,85,4.91,CL,1712121054
58,fale old settlement,-9.3852,-171.2468,302.86,69,93,1.04,TK,1712121276
59,kapsan-up,41.0903,128.2933,284.95,35,99,2.33,KP,1712121276
60,umba,66.6871,34.3429,258.01,92,48,2.5,RU,1712121276
61,bredasdorp,-34.5322,20.0403,287.64,92,71,1.63,ZA,1712121277
62,waddan,29.1614,16.139,292.05,39,59,1.32,LY,1712121277
63,holualoa,19.6228,-155.9522,297.06,91,75,0.45,US,1712121048
64,iqaluit,63.7506,-68.5145,268.54,79,97,4.02,CA,1712121277
65,constantia,44.1833,28.65,282.43,69,54,3.23,RO,1712120987
66,nha trang,12.25,109.1833,307.15,59,100,5.26,VN,1712121278
67,faya-largeau,17.9257,19.1043,297.16,13,46,7.3,TD,1712121278
68,blackmans bay,-43.0167,147.3167,288.0,51,100,0.89,AU,1712121278
69,talnakh,69.4865,88.3972,264.08,94,100,6.74,RU,1712121278
70,dryden,49.7833,-92.7503,270.57,97,100,3.4,CA,1712121279
71,tolanaro,-25.0319,46.9987,296.16,87,95,5.99,MG,1712121279
72,merizo village,13.2658,144.6691,303.47,86,96,8.14,GU,1712121279
73,lamarque,-39.423,-65.7021,289.03,40,100,9.15,AR,1712121279
74,psedakh,43.4672,44.5692,284.37,57,29,1.27,RU,1712121279
75,albany,42.6001,-73.9662,278.66,77,100,1.79,US,1712121142
76,buka,40.8108,69.1986,284.46,73,100,1.32,UZ,1712121280
77,port elizabeth,-33.918,25.5701,290.55,79,36,0.89,ZA,1712121280
78,annaba,36.9,7.7667,281.13,93,0,1.54,DZ,1712121280
79,sisimiut,66.9395,-53.6735,267.32,66,33,3.4,GL,1712121280
80,palikir - national government center,6.9248,158.1611,303.62,70,75,6.69,FM,1712121281
81,zhigalovo,54.8097,105.1578,274.74,50,87,1.42,RU,1712121281
82,minas de marcona,-15.2119,-75.1103,290.54,78,93,2.34,PE,1712121281
83,vila velha,-20.3297,-40.2925,298.12,94,0,1.54,BR,1712121183
84,inverell,-29.7833,151.1167,300.43,45,29,2.24,AU,1712121282
85,puerto baquerizo moreno,-0.9,-89.6,297.55,85,84,3.07,EC,1712121282
86,bikenibeu village,1.3673,173.1241,302.13,89,75,4.12,KI,1712121282
87,ghanzi,-21.5667,21.7833,291.56,90,100,3.82,BW,1712121282
88,fort-shevchenko,44.5086,50.263,286.96,47,0,7.88,KZ,1712121282
89,kabo,7.6994,18.629,299.91,51,94,3.76,CF,1712121080
90,cedeira,43.6797,-8.0209,286.94,76,69,8.98,ES,1712121283
91,stanley,54.868,-1.6985,280.92,98,100,4.12,GB,1712121224
92,el bauga,18.262,33.9081,298.57,17,89,2.31,SD,1712121283
93,kangding,30.0513,101.9603,285.18,87,98,2.1,CN,1712121284
94,mukalla,14.5425,49.1242,300.06,72,35,2.3,YE,1712121284
95,amble,55.3333,-1.5833,281.23,93,100,5.66,GB,1712121284
96,badger,64.8,-147.5333,262.29,63,20,2.57,US,1712121284
97,hawaiian paradise park,19.5933,-154.9731,295.39,86,75,1.54,US,1712121284
98,nantucket,41.2835,-70.0995,279.18,87,100,4.12,US,1712121048
99,melo,-32.3667,-54.1833,285.82,90,2,2.99,UY,1712121285
100,longyearbyen,78.2186,15.6401,258.06,78,75,1.54,SJ,1712121285
101,chodziez,52.995,16.9198,282.05,90,99,5.89,PL,1712121285
102,praya,14.9215,-23.5087,294.45,78,20,4.12,CV,1712121285
103,happy valley-goose bay,53.3168,-60.3315,273.32,80,100,3.6,CA,1712121286
104,copala,16.65,-98.9833,296.9,87,8,1.38,MX,1712121286
105,karachi,24.9056,67.0822,301.05,61,40,4.63,PK,1712121032
106,la'ie,21.6477,-157.9253,299.13,77,70,4.92,US,1712121286
107,nchelenge,-9.3451,28.734,293.34,89,46,1.68,ZM,1712121286
108,winnemucca,40.973,-117.7357,283.18,62,0,5.14,US,1712121287
109,kingscliff,-28.2667,153.5667,302.04,70,40,2.57,AU,1712121287
110,afaahiti,-17.75,-149.2833,301.08,75,85,8.01,PF,1712121287
111,natal,-5.795,-35.2094,298.51,94,20,1.54,BR,1712120947
112,port alfred,-33.5906,26.891,288.25,91,81,0.45,ZA,1712121274
113,tual,-5.6667,132.75,300.94,82,82,8.17,ID,1712121288
114,wailua homesteads,22.0669,-159.378,298.39,75,100,8.23,US,1712121288
115,alice springs,-23.7,133.8833,300.49,28,0,5.14,AU,1712121289
116,susuman,62.7833,148.1667,266.47,55,0,1.34,RU,1712121289
117,saint-pierre,-21.3393,55.4781,299.97,65,0,11.32,RE,1712121289
118,olenegorsk,68.15,33.3,256.21,99,88,0.31,RU,1712121289
119,khandyga,62.6667,135.6,267.05,82,100,1.55,RU,1712121289
120,constitucion,-35.3333,-72.4167,286.22,89,100,2.95,CL,1712121290
121,puerto san jose,13.9256,-90.8244,300.31,75,70,4.27,GT,1712121290
122,saipan,15.1355,145.701,304.54,66,40,8.23,MP,1712121145
123,magadan,59.5667,150.8,272.0,63,0,1.3,RU,1712121290
124,nova vicosa,-17.8919,-39.3719,298.48,85,96,0.96,BR,1712121028
125,svetlyy,54.675,20.1347,277.24,83,100,11.37,RU,1712121028
126,santo antonio do ica,-3.1022,-67.9397,297.25,96,92,1.21,BR,1712121291
127,sitka,57.0531,-135.33,279.09,61,40,4.12,US,1712121291
128,anna regina,7.2644,-58.5077,300.16,80,100,4.49,GY,1712121291
129,san andres,12.5847,-81.7006,300.16,78,20,2.06,CO,1712121292
130,crane,31.3974,-102.3501,286.5,23,33,4.28,US,1712121292
131,fort mcmurray,56.7268,-111.381,280.41,84,100,2.37,CA,1712121118
132,drohobych,49.3499,23.5056,280.82,76,28,5.09,UA,1712121292
133,lukhovitsy,54.9728,39.0361,286.31,77,100,6.61,RU,1712121292
134,argo,37.6333,22.7333,286.92,54,100,1.97,GR,1712121182
135,flin flon,54.7682,-101.865,271.48,92,97,3.81,CA,1712121293
136,boguchany,58.3814,97.4531,272.51,95,100,1.34,RU,1712121293
137,aasiaat,68.7098,-52.8699,260.57,91,96,2.41,GL,1712121293
138,mankera,31.3866,71.4407,301.17,18,68,1.66,PK,1712121293
139,itamarandiba,-17.8572,-42.8589,291.72,99,100,0.65,BR,1712121065
140,vredendal,-31.6683,18.5012,290.64,50,45,2.75,ZA,1712121294
141,kokoda,-8.8785,147.7407,301.39,86,91,2.3,PG,1712121294
142,colonia,50.9333,6.95,283.56,89,0,1.54,DE,1712121065
143,portland,45.5234,-122.6762,287.38,67,75,4.12,US,1712121061
144,tegueste,28.5167,-16.3167,289.25,87,0,6.69,ES,1712121295
145,vorgashor,67.5833,63.95,254.91,92,60,6.79,RU,1712121295
146,thompson,55.7435,-97.8558,271.38,97,100,1.43,CA,1712121295
147,leava,-14.3,-178.1667,302.34,77,100,5.83,WF,1712121295
148,choibalsan,48.0667,114.5,273.95,57,1,3.56,MN,1712121296
149,kitimat,54.0524,-128.6534,276.43,74,99,3.13,CA,1712121296
150,ola,59.5833,151.2833,272.86,61,0,3.33,RU,1712121296
151,looe,50.3578,-4.4542,284.14,92,97,9.51,GB,1712121296
152,tostado,-29.232,-61.7692,294.81,84,100,2.8,AR,1712121296
153,tadine,-21.55,167.8833,299.41,74,9,5.1,NC,1712121297
154,ribeira grande,38.5167,-28.7,289.69,89,100,6.71,PT,1712121297
155,whitehorse,60.7161,-135.0538,272.09,92,99,0.57,CA,1712121037
156,el abiodh sidi cheikh,32.893,0.5484,286.6,31,79,0.55,DZ,1712121297
157,kavaratti,10.5669,72.642,301.53,76,94,3.61,IN,1712121297
158,new norfolk,-42.7826,147.0587,288.66,47,100,3.1,AU,1712121298
159,port isabel,26.0734,-97.2086,295.94,67,0,9.26,US,1712121298
160,christchurch,-43.5333,172.6333,294.56,63,78,2.57,NZ,1712120830
161,port mathurin,-19.6833,63.4167,299.8,82,98,6.4,MU,1712121298
162,alofi,-19.0595,-169.9187,301.09,83,75,5.66,NU,1712121298
163,pokhara,28.2333,83.9833,303.1,16,92,3.0,NP,1712121186
164,yellowknife,62.456,-114.3525,265.21,85,83,5.91,CA,1712121267
165,mount gambier,-37.8333,140.7667,289.83,52,89,4.07,AU,1712121017
166,saskatoon,52.1168,-106.6345,278.14,60,100,5.36,CA,1712121018
167,deogarh,21.5333,84.7333,311.77,12,22,2.11,IN,1712121299
168,queenstown,-31.8976,26.8753,286.38,86,91,0.95,ZA,1712121299
169,udachny,66.4167,112.4,265.78,68,99,5.85,RU,1712121300
170,college,64.8569,-147.8028,262.33,57,20,2.57,US,1712121300
171,mpumalanga,-26.0,30.0,287.07,85,44,1.8,ZA,1712121300
172,nar'yan-mar,67.6713,53.087,260.43,90,6,4.47,RU,1712121300
173,chimore,-16.9833,-65.1333,296.7,99,94,0.55,BO,1712121300
174,lorengau,-2.0226,147.2712,301.17,83,99,5.93,PG,1712121301
175,selfoss,63.9331,-20.9971,269.84,78,100,2.73,IS,1712121301
176,howrah,22.5892,88.3103,307.15,55,20,2.57,IN,1712121301
177,port lincoln,-34.7333,135.8667,291.15,61,100,5.02,AU,1712121301
178,waupaca,44.358,-89.086,275.67,94,100,7.15,US,1712121302
179,mamonovo,54.4643,19.938,277.18,83,100,12.21,RU,1712121302
180,choma,-16.8065,26.9531,291.39,72,38,1.64,ZM,1712121302
181,sokcho,38.2083,128.5911,281.86,83,100,4.24,KR,1712121302
182,hamilton,39.1834,-84.5333,284.5,80,100,5.14,US,1712121107
183,opuwo,-18.0607,13.84,292.04,77,48,2.21,NA,1712121303
184,kozienice,51.5829,21.5478,282.75,64,88,9.55,PL,1712121303
185,bodo,67.28,14.405,264.79,69,0,4.63,NO,1712121303
186,avarua,-21.2078,-159.775,301.18,74,75,1.54,CK,1712121303
187,qaqortoq,60.7167,-46.0333,263.18,73,8,2.25,GL,1712121303
188,malango,-2.9627,119.9001,299.1,84,100,0.5,ID,1712121304
189,tazovsky,67.4667,78.7,265.77,93,100,13.41,RU,1712121304
190,nehe,48.4833,124.8333,279.4,39,53,5.98,CN,1712121304
191,hammerfest,70.6634,23.6821,263.4,79,0,3.6,NO,1712121304
192,callao,-12.0667,-77.15,297.99,68,0,4.63,PE,1712121304
193,mar del plata,-38.0023,-57.5575,289.79,77,0,8.94,AR,1712121166
194,weyburn,49.6668,-103.8511,275.62,65,29,4.15,CA,1712121217
195,petropavlovsk-kamchatsky,53.0452,158.6483,277.48,82,40,5.36,RU,1712121305
196,al jawf,29.5,38.75,294.27,22,23,4.44,SA,1712121305
197,santo antonio,-6.3106,-35.4789,297.88,94,25,0.96,BR,1712121242
198,taradale,-39.5333,176.85,293.19,66,0,2.22,NZ,1712121009
199,marsberg,51.4617,8.8495,282.26,95,100,2.73,DE,1712121306
200,st. john's,47.5649,-52.7093,274.25,92,92,8.94,CA,1712121140
201,atafu village,-8.5421,-172.5159,302.67,71,100,1.57,TK,1712121306
202,diu,20.7141,70.9822,304.18,36,10,3.55,IN,1712121306
203,yemetsk,63.4721,41.7941,265.4,90,100,5.71,RU,1712121307
204,revda,56.801,59.9303,279.67,87,88,5.46,RU,1712121307
205,iskateley,67.6803,53.1512,260.38,90,6,4.47,RU,1712121307
206,amnat charoen,15.9167,104.75,312.11,27,6,5.57,TH,1712121307
207,ust'-ilimsk,58.0006,102.6619,273.39,87,100,4.02,RU,1712121307
208,castillos,-34.1667,-53.8333,286.68,84,18,1.8,UY,1712121308
209,chonchi,-42.6128,-73.8092,280.71,94,100,1.6,CL,1712121308
210,shache,38.4167,77.2406,288.61,17,100,2.53,CN,1712121308
211,newman,37.3138,-121.0208,291.09,81,0,0.89,US,1712121309
212,tyumentsevo,53.3224,81.498,276.15,81,99,3.34,RU,1712121309
213,mkuranga,-7.118,39.2078,296.98,97,100,2.47,TZ,1712121309
214,gizo,-8.103,156.8419,302.44,73,92,2.49,SB,1712121309
215,linghai,41.1653,121.3667,287.38,12,99,5.95,CN,1712121043
216,tura,25.5198,90.2201,304.64,28,63,3.0,IN,1712121310
217,santa ana,33.7456,-117.8678,291.82,70,0,2.06,US,1712121174
218,sebastopol,44.6,33.5333,285.37,51,67,0.45,UA,1712121310
219,dingwall,57.5953,-4.4272,278.64,93,100,6.63,GB,1712121310
220,al wajh,26.2455,36.4525,298.12,41,0,1.54,SA,1712121311
221,adam,22.3756,57.5233,302.39,23,96,0.66,OM,1712121311
222,kupang,-10.1667,123.5833,306.47,75,75,3.6,ID,1712120706
223,hilo,19.7297,-155.09,295.53,89,75,1.54,US,1712121228
224,broome,42.2506,-75.833,279.65,91,100,9.77,US,1712121311
225,pisco,-13.7,-76.2167,296.18,78,75,2.06,PE,1712121026
226,chakwal,32.9334,72.8585,299.25,53,68,1.64,PK,1712121312
227,barro alto,-11.7608,-41.9117,294.06,92,57,1.25,BR,1712121312
228,lang suan,9.9456,99.0785,308.34,44,100,3.03,TH,1712121312
229,vilyuchinsk,52.9306,158.4028,278.3,77,97,3.63,RU,1712121312
230,anadyr,64.75,177.4833,264.43,78,75,4.0,RU,1712121313
231,utrik,11.2278,169.8474,299.91,75,100,7.81,MH,1712121313
232,akcaabat,41.0212,39.5715,291.08,52,0,1.54,TR,1712121313
233,kumbo,6.2,10.6667,292.57,67,100,0.78,CM,1712121313
234,baissa,7.2333,10.6333,298.71,67,100,0.71,NG,1712121314
235,rio grande,-32.035,-52.0986,290.97,70,1,1.9,BR,1712121124
236,geraldton,-28.7667,114.6,308.38,16,100,4.12,AU,1712121098
237,hadibu,12.65,54.0333,300.54,68,45,2.38,YE,1712121314
238,klyuchi,52.2667,79.1667,276.27,72,97,3.16,RU,1712121181
239,mandalgovi,45.7625,106.2708,277.9,33,100,5.91,MN,1712121315
240,hard bargain,26.3167,-77.5667,297.4,78,73,6.8,BS,1712121078
241,sabang,5.8933,95.3214,302.24,72,77,1.6,ID,1712121315
242,lekeitio,43.3666,-2.5007,288.34,73,46,4.83,ES,1712121315
243,tutoia,-2.7619,-42.2744,299.37,88,98,2.26,BR,1712121077
244,severo-zadonsk,54.0348,38.4017,283.72,68,95,7.28,RU,1712121316
245,enewetak,11.3474,162.3373,300.02,79,80,9.14,MH,1712121316
246,elko,41.0002,-115.5012,281.28,71,0,0.89,US,1712121316
247,inhambane,-23.865,35.3833,298.2,85,38,3.42,MZ,1712121316
248,tvoroyri,61.5556,-6.8111,276.42,56,100,11.66,FO,1712121317
249,west island,-12.1568,96.8225,303.14,70,40,6.17,CC,1712121317
250,mungwi,-10.1732,31.3694,290.48,97,53,1.84,ZM,1712121317
251,bahua,25.85,80.6333,308.41,10,30,1.27,IN,1712121317
252,tobelo,1.7284,128.0095,302.73,69,29,3.11,ID,1712121317
253,eureka,40.8021,-124.1637,284.37,95,90,2.68,US,1712121047
254,kalemie,-5.9475,29.1947,294.5,89,75,1.84,CD,1712121318
255,ocean shores,46.9737,-124.1563,280.58,92,100,8.75,US,1712121049
256,mili,6.0815,171.735,300.97,79,77,8.17,MH,1712121318
257,taksimo,56.3444,114.8794,272.16,57,37,0.53,RU,1712121318
258,martapura,-3.4167,114.85,306.2,58,40,3.09,ID,1712121319
259,namtsy,62.7161,129.6658,269.93,81,97,5.57,RU,1712121319
260,mirandopolis,-21.1336,-51.1017,296.41,79,7,1.8,BR,1712121319
261,guiuan,11.0333,125.7247,300.84,79,50,5.42,PH,1712121319
262,kulhudhuffushi,6.6221,73.07,302.06,70,99,0.99,MV,1712121319
263,taungoo,18.9333,96.4333,312.78,24,0,1.57,MM,1712121320
264,pathein,16.7833,94.7333,309.56,33,1,5.99,MM,1712121320
265,kirensk,57.7853,108.1119,270.91,82,93,2.68,RU,1712121320
266,zavoronezhskoye,52.8801,40.5526,287.41,66,98,8.97,RU,1712121320
267,itamaraca,-7.7478,-34.8256,299.18,88,24,1.64,BR,1712121321
268,el dovio,4.5079,-76.2362,289.37,98,96,0.22,CO,1712121321
269,panaba,21.2833,-88.2667,298.42,81,43,5.18,MX,1712121321
270,fortuna,40.5982,-124.1573,284.22,97,100,3.09,US,1712121321
271,bayanhongor,46.7167,100.1167,274.0,58,100,1.13,MN,1712121322
272,bilibino,68.0546,166.4372,261.15,74,15,0.58,RU,1712121322
273,kargasok,59.0556,80.8572,273.69,100,100,1.79,RU,1712121322
274,nishinoomote,30.7333,131.0,295.99,82,40,9.63,JP,1712121322
275,nuevo laredo,27.4763,-99.5164,293.3,28,0,3.6,MX,1712121323
276,alice town,25.7167,-79.3,297.4,77,66,6.52,BS,1712121323
277,dudinka,69.4058,86.1778,265.75,94,100,9.39,RU,1712121323
278,imbituba,-28.24,-48.6703,294.29,90,79,1.74,BR,1712121323
279,kone,-21.0595,164.8658,301.74,60,26,2.18,NC,1712121324
280,baker city,44.7749,-117.8344,286.99,61,0,4.12,US,1712121324
281,santiago del estero,-27.7951,-64.2615,290.88,90,74,1.04,AR,1712121099
282,carauari,-4.8828,-66.8958,296.68,97,94,0.87,BR,1712121218
283,straseni,47.1414,28.6103,283.39,55,44,5.62,MD,1712121324
284,atamyrat,37.8357,65.2106,289.81,23,6,1.56,TM,1712121325
285,viedma,-40.8135,-62.9967,289.54,32,99,6.39,AR,1712121325
286,hasaki,35.7333,140.8333,289.37,86,100,2.96,JP,1712121325
287,swakopmund,-22.6833,14.5333,288.7,87,2,0.67,NA,1712121325
288,al bardiyah,31.7561,25.0865,291.89,47,0,1.46,LY,1712121326
289,ad dawadimi,24.5077,44.3924,290.79,68,3,1.65,SA,1712121326
290,vorkuta,67.5,64.0,254.44,91,55,6.8,RU,1712121209
291,porto novo,6.4965,2.6036,300.89,83,88,3.08,BJ,1712121327
292,santa ines,-3.6667,-45.38,296.9,98,98,1.1,BR,1712121327
293,ust-nera,64.5667,143.2,265.38,77,77,1.78,RU,1712121327
294,huarmey,-10.0681,-78.1522,295.68,82,89,2.19,PE,1712121327
295,yaren,-0.5472,166.916,301.12,75,87,1.93,NR,1712121327
296,dubbo,-32.25,148.6167,297.22,43,40,4.12,AU,1712121051
297,abalak,58.1286,68.5944,277.79,73,100,3.55,RU,1712121293
298,saint-joseph,-21.3667,55.6167,299.36,79,98,6.76,RE,1712121328
299,aur,8.1499,171.1687,300.66,74,99,7.48,MH,1712121329
300,qalat,32.1058,66.9083,285.95,27,0,5.31,AF,1712121329
301,ibiruba,-28.6275,-53.0897,290.03,94,0,2.74,BR,1712121329
302,kerema,-7.9631,145.7785,302.5,76,72,4.61,PG,1712121329
303,al muwayh,22.4333,41.7583,292.59,70,0,1.33,SA,1712121329
304,la ronge,55.1001,-105.2842,274.87,86,100,4.21,CA,1712121330
305,bayji,34.9311,43.487,297.02,28,4,1.53,IQ,1712121330
306,coquimbo,-29.9533,-71.3436,290.15,75,0,1.67,CL,1712121081
307,belyy yar,53.6039,91.3903,282.09,49,0,3.0,RU,1712121330
308,port blair,11.6667,92.75,305.17,66,12,2.57,IN,1712121056
309,conception bay south,47.4999,-52.9981,274.12,92,99,10.76,CA,1712121305
310,nova olimpia,-14.7972,-57.2881,296.78,95,99,0.82,BR,1712121008
311,kiruna,67.8557,20.2251,251.66,65,0,3.6,SE,1712121331
312,el granada,37.5027,-122.4694,287.36,86,100,5.14,US,1712121331
313,silver city,32.7701,-108.2803,280.19,71,0,3.6,US,1712121332
314,rabaul,-4.1967,152.1721,302.58,66,31,1.88,PG,1712121332
315,kudahuvadhoo,2.6708,72.8944,302.02,69,100,2.62,MV,1712121332
316,san mariano,7.5,126.0,306.67,40,68,2.84,PH,1712121332
317,daru,-9.0763,143.2092,302.85,73,91,2.89,PG,1712121332
318,shimoda,34.6667,138.95,287.65,94,100,2.52,JP,1712121333
319,danjiangkou,32.5428,111.5086,286.99,75,100,2.26,CN,1712121333
320,boa viagem,-5.1275,-39.7322,295.67,97,32,0.65,BR,1712121333
321,hankasalmi,62.3833,26.4333,269.32,88,100,5.68,FI,1712121333
322,lumberton,34.6182,-79.0086,295.2,88,0,3.6,US,1712121333
323,veinticinco de mayo,-35.4323,-60.1727,287.03,93,58,0.45,AR,1712121054
324,dhidhdhoo,6.8833,73.1,302.15,70,92,1.14,MV,1712121334
325,lugus,5.7036,120.8203,301.16,77,4,3.24,PH,1712121334
326,al kut,32.5147,45.819,298.05,22,49,4.16,IQ,1712121334
327,puerto leguizamo,-0.1934,-74.7819,295.92,99,96,1.06,CO,1712121335
328,indramayu,-6.3264,108.32,303.94,68,75,3.27,ID,1712121335
329,tsiombe,-25.3,45.4833,296.72,80,0,5.42,MG,1712121335
330,tazacorte,28.629,-17.9293,291.69,83,100,2.68,ES,1712121335
331,champerico,14.3,-91.9167,300.67,73,0,3.97,GT,1712121336
332,greytown,-29.0642,30.5928,289.35,98,100,1.08,ZA,1712121336
333,gunjur,13.2019,-16.7339,295.19,73,0,2.57,GM,1712121336
334,valparaiso,-33.0393,-71.6273,291.48,58,40,1.54,CL,1712121108
335,egersund,58.4513,5.9997,278.75,86,100,3.51,NO,1712121336
336,miles city,46.4083,-105.8406,280.69,57,0,3.09,US,1712121189
337,san luis de la loma,17.2706,-100.8939,297.29,85,56,3.0,MX,1712121337
338,tchintabaraden,15.8969,5.7985,299.53,8,82,4.28,NE,1712121337
339,toliara,-23.35,43.6667,300.38,59,0,5.74,MG,1712121337
340,datong,40.0936,113.2914,285.53,42,99,1.45,CN,1712121337
341,akobo,7.4344,3.9497,296.78,94,91,1.32,NG,1712121338
342,turpan,42.9333,89.1667,291.53,24,10,0.84,CN,1712121338
343,kununurra,-15.7667,128.7333,306.14,66,40,3.6,AU,1712121338
344,quibdo,5.6947,-76.6611,296.45,99,100,0.93,CO,1712121338
345,shagonar,51.5333,92.8,275.8,82,100,0.82,RU,1712121339
346,mana,5.6592,-53.7767,299.07,89,58,3.57,GF,1712121339
347,lahad datu,5.0268,118.327,303.44,62,78,2.29,MY,1712121339
348,ad-damazin,11.7891,34.3592,302.66,46,95,3.07,SD,1712121339
349,nadym,65.5333,72.5167,261.47,70,95,10.85,RU,1712121339
350,carnarvon,-24.8667,113.6333,307.25,34,92,5.42,AU,1712121340
351,bhinga,27.7167,81.9333,307.3,10,72,5.41,IN,1712121340
352,chak azam sahu,30.75,73.0333,303.86,16,33,3.06,PK,1712121340
353,iranshahr,27.2025,60.6848,299.34,19,0,3.09,IR,1712121341
354,ternate,0.8,127.4,302.52,74,31,4.07,ID,1712121341
355,manokwari,-0.8667,134.0833,300.57,81,100,1.43,ID,1712121341
356,ghadamis,30.1337,9.5007,291.32,42,0,7.36,LY,1712121341
357,mount isa,-20.7333,139.5,306.02,40,40,3.6,AU,1712121234
358,fort st. john,56.2499,-120.8529,277.41,44,94,4.42,CA,1712121131
359,tralee,52.2704,-9.7026,281.13,94,100,2.88,IE,1712121342
360,praia da vitoria,38.7333,-27.0667,289.68,89,97,11.04,PT,1712121342
361,pestravka,52.405,49.9583,284.11,63,42,7.2,RU,1712121342
362,abu qurqas,27.9312,30.8384,293.51,41,0,6.36,EG,1712121343
363,toyooka,35.5333,134.8333,285.9,96,100,2.83,JP,1712121343
364,zagazig,30.5877,31.502,290.87,57,0,1.93,EG,1712121343
365,keflavik,64.0049,-22.5624,272.39,74,0,4.12,IS,1712121343
366,san patricio,28.017,-97.5169,294.17,47,0,4.64,US,1712121322
367,cockburn town,21.4612,-71.1419,298.25,72,29,8.4,TC,1712121344
368,ta`u,-14.2336,-169.5144,302.48,77,100,7.33,AS,1712121344
369,maceio,-9.6658,-35.7353,298.84,94,40,0.51,BR,1712121106
370,santa cruz,-17.8,-63.1667,296.85,94,40,4.12,BO,1712120761
371,ghat,24.9647,10.1728,295.53,13,0,2.44,LY,1712121344
372,manggar,-2.8833,108.2667,303.58,67,68,3.0,ID,1712121345
373,yuncheng,35.0231,110.9928,285.58,83,100,1.96,CN,1712121345
374,okha,53.5739,142.9478,271.82,73,100,6.64,RU,1712121345
375,usinsk,65.9939,57.5281,254.86,86,10,2.24,RU,1712121345
376,miyako,39.6367,141.9525,283.44,61,100,1.78,JP,1712121345
377,lexington park,38.2668,-76.4538,283.56,95,100,3.6,US,1712121346
378,cannonvale,-20.2833,148.7,300.81,67,39,6.54,AU,1712121346
379,pimentel,-6.8367,-79.9342,296.31,68,20,4.12,PE,1712121346
380,wesley,15.5667,-61.3167,298.73,79,100,5.69,DM,1712121346
381,bovalino,38.149,16.174,286.67,57,82,2.23,IT,1712121347
382,borkum,53.5809,6.6915,282.56,93,100,6.38,DE,1712121347
383,tofol,5.3248,163.0078,301.24,72,77,7.21,FM,1712121347
384,beyneu,45.3167,55.2,286.12,41,60,5.96,KZ,1712121347
385,denia,38.8408,0.1057,288.33,67,1,0.45,ES,1712121348
386,vila do maio,15.1333,-23.2167,294.59,79,32,8.41,CV,1712121348
387,lodja,-3.4833,23.4333,294.26,97,100,0.71,CD,1712121348
388,esbjerg,55.4667,8.45,275.43,95,0,1.54,DK,1712121348
389,koundara,12.4833,-13.3,299.75,52,27,3.27,GN,1712121349
390,ostrovskoye,57.8057,42.2433,284.77,83,100,5.4,RU,1712121349
391,raduzhny,62.0961,77.475,274.63,100,100,6.89,RU,1712121349
392,kailua-kona,19.6406,-155.9956,299.13,89,75,0.45,US,1712121349
393,george town,5.4112,100.3354,307.56,66,20,1.54,MY,1712121266
394,camargo,27.6667,-105.1667,284.78,40,19,4.81,MX,1712121350
395,preston,53.7667,-2.7167,283.42,95,100,4.39,GB,1712121350
396,saint-philippe,-21.3585,55.7679,299.92,81,99,6.79,RE,1712121350
397,aldinga beach,-35.2793,138.4604,294.96,58,48,3.96,AU,1712121350
398,kamaishi,39.2667,141.8833,284.57,58,100,1.65,JP,1712121351
399,new kingman-butler,35.265,-114.0323,286.43,59,0,2.57,US,1712121351
400,kolwezi,-10.7148,25.4667,289.51,96,99,1.83,CD,1712121351
401,zelenogorskiy,55.0333,87.0,275.76,85,100,2.46,RU,1712121351
402,aweil,8.7682,27.4002,301.27,48,73,2.03,SS,1712121351
403,rongelap,11.1635,166.8941,300.09,79,93,7.55,MH,1712121352
404,itaituba,-4.2761,-55.9836,296.77,99,99,0.85,BR,1712121352
405,remire-montjoly,4.9167,-52.2667,299.17,94,75,1.54,GF,1712121352
406,guaramirim,-26.4731,-49.0028,297.0,96,100,0.83,BR,1712121352
407,mbekenyera,-10.0,38.9833,296.81,93,85,0.87,TZ,1712121352
408,mogocha,53.7333,119.7667,276.19,48,20,2.77,RU,1712121353
409,ariquemes,-9.9133,-63.0408,296.39,99,30,0.38,BR,1712120761
410,maragogi,-9.0122,-35.2225,299.81,87,94,1.74,BR,1712121192
411,la foa,-21.7108,165.8276,300.51,65,8,4.67,NC,1712121353
412,kolonia town,6.964,158.206,304.21,70,75,6.69,FM,1712121354
413,kayangel,8.0823,134.7173,301.23,80,74,9.5,PW,1712121354
414,watsa,3.0372,29.5355,292.14,87,91,1.71,CD,1712121354
415,port saint john's,-31.6229,29.5448,294.57,73,100,1.99,ZA,1712121354
416,siavonga,-16.5382,28.7088,296.92,68,43,3.24,ZM,1712121354
417,archangelos,36.2149,28.1149,291.14,65,89,2.91,GR,1712121355
418,pangody,65.85,74.4859,260.24,77,100,11.58,RU,1712121355
419,namibe,-15.1961,12.1522,294.98,74,57,4.94,AO,1712121355
420,moussoro,13.6408,16.4901,299.24,13,55,4.4,TD,1712121355
421,linevo,54.4589,83.3764,275.13,83,100,2.89,RU,1712121355
422,palu,-0.8917,119.8707,302.86,81,83,1.93,ID,1712121356
423,yerofey pavlovich,53.9667,121.9667,275.44,49,25,3.84,RU,1712121356
424,luderitz,-26.6481,15.1594,289.48,80,0,2.29,NA,1712121356
425,podgornoye,51.735,39.1496,289.4,41,0,6.0,RU,1712121356
426,sur,22.5667,59.5289,300.93,47,64,3.93,OM,1712121357
427,cidreira,-30.1811,-50.2056,293.38,83,34,1.28,BR,1712121357
428,baiti,13.745,-14.7482,302.0,24,2,2.91,SN,1712121357
429,khovd,48.0056,91.6419,280.1,28,7,2.62,MN,1712121357
430,cabo san lucas,22.8909,-109.9124,292.46,79,6,2.02,MX,1712120737
431,velikiye luki,56.34,30.5452,283.59,80,78,5.87,RU,1712121358
432,thinadhoo,0.5333,72.9333,302.16,72,71,2.09,MV,1712121358
433,at taraf,25.3628,49.725,298.45,31,97,1.14,SA,1712121358
434,pierre,44.3683,-100.351,275.66,76,0,5.66,US,1712121256
435,nagqu,31.5,92.0,278.13,17,89,8.17,CN,1712121359
436,sao vicente,-23.9631,-46.3919,299.41,26,30,1.8,BR,1712120763
437,brandon,27.9378,-82.2859,297.53,90,0,4.63,US,1712121152
438,chimoio,-19.1164,33.4833,292.96,91,42,0.93,MZ,1712121359
439,shahba,32.8551,36.629,292.62,33,1,0.96,SY,1712121359
440,kiunga,-6.1219,141.2906,306.3,57,80,1.12,PG,1712121360
441,vernon,50.2581,-119.2691,285.24,64,100,1.34,CA,1712121312
442,abepura,-2.6333,140.5833,300.6,89,40,2.57,ID,1712121360
443,naze,28.3667,129.4833,296.29,80,44,10.33,JP,1712121360
444,mount pearl,47.5166,-52.7813,273.79,92,98,3.58,CA,1712121361
445,ardakan,32.31,54.0175,288.53,25,6,1.81,IR,1712121361
446,mckinney,33.1976,-96.6153,285.72,70,0,2.57,US,1712121091
447,kapa'a,22.0752,-159.319,299.14,75,100,8.23,US,1712121361
448,ponoka,52.6768,-113.5815,281.42,61,98,5.75,CA,1712121361
449,flying fish cove,-10.4217,105.6791,302.97,74,75,6.69,CX,1712121362
450,duong dong,10.2167,103.9667,303.15,70,40,3.07,VN,1712121362
451,madimba,-10.4,40.3333,298.86,92,82,3.63,TZ,1712121362
452,myeik,12.4333,98.6,304.99,56,12,3.78,MM,1712121362
453,pacific grove,36.6177,-121.9166,286.16,83,100,1.54,US,1712121093
454,bayramaly,37.6185,62.1671,290.26,24,1,1.78,TM,1712121363
455,ikalamavony,-21.15,46.5833,294.3,78,69,4.84,MG,1712121363
456,bernalillo,35.05,-106.6673,284.81,44,0,4.12,US,1712121363
457,road town,18.4167,-64.6167,298.72,76,5,7.65,VG,1712121262
458,antsiranana,-12.2787,49.2917,300.07,84,93,6.36,MG,1712121363
459,boca raton,26.3587,-80.0831,297.59,87,0,2.57,US,1712121364
460,port douglas,-16.4833,145.4667,300.59,79,79,5.66,AU,1712121364
461,picota,-6.9197,-76.3304,295.51,99,49,0.3,PE,1712121364
462,salinopolis,-0.6136,-47.3561,299.67,87,75,2.54,BR,1712121364
463,forster,-32.1667,152.5167,299.42,51,91,5.37,AU,1712121364
464,borogontsy,62.6683,131.1683,268.8,87,100,4.36,RU,1712121365
465,nogliki,51.8333,143.1667,273.9,68,74,4.02,RU,1712121365
466,zaozersk,69.4005,32.4476,256.87,98,70,1.86,RU,1712121365
467,marine corps base hawaii - mcbh,21.4453,-157.7513,299.13,69,40,7.72,US,1712121365
468,mbanza kongo,-6.267,14.2401,294.13,99,100,0.89,AO,1712121365
469,kavieng,-2.5744,150.7967,302.58,73,62,5.29,PG,1712121366
470,kroya,-7.6331,109.2461,302.95,74,67,4.93,ID,1712121366
471,richards bay,-28.783,32.0377,295.39,92,75,5.65,ZA,1712121366
472,ain defla,36.2641,1.9679,285.02,69,24,1.44,DZ,1712121366
473,botad,22.1667,71.6667,304.65,26,67,3.58,IN,1712121366
474,la palma,33.8464,-118.0467,292.31,74,0,3.6,US,1712121367
475,bankura,23.25,87.0667,308.2,12,28,0.76,IN,1712121367
476,pacanga,-7.1667,-79.5,297.18,70,100,1.41,PE,1712121367
477,banda aceh,5.5577,95.3222,303.53,69,83,2.24,ID,1712121367
478,atar,20.5169,-13.0499,298.3,22,0,5.49,MR,1712121367
479,basco,20.4487,121.9702,300.17,82,0,6.49,PH,1712121368
480,strezhevoy,60.7333,77.5889,273.13,98,100,1.79,RU,1712121368
481,sarangani,5.4033,125.4636,300.95,76,62,9.7,PH,1712121368
482,yeniseysk,58.4497,92.1703,273.12,100,100,4.02,RU,1712121262
483,pimenta bueno,-11.6725,-61.1936,296.22,96,99,0.34,BR,1712120765
484,laubach,50.542,8.9903,282.1,90,100,2.85,DE,1712121369
485,umm kaddadah,13.6017,26.6876,296.15,18,76,4.02,SD,1712121369
486,kenai,60.5544,-151.2583,270.42,79,0,2.57,US,1712121369
487,peace river,56.2501,-117.286,282.45,54,100,4.05,CA,1712121123
488,ambon,-3.6954,128.1814,305.19,67,40,2.57,ID,1712121369
489,zouerate,22.7187,-12.4521,293.38,28,0,5.59,MR,1712121370
490,sirte,31.2089,16.5887,290.3,88,41,1.65,LY,1712121370
491,northam,51.0333,-4.2167,284.63,96,100,8.07,GB,1712121370
492,gamba,-2.65,10.0,299.74,91,100,2.29,GA,1712121370
493,vadso,70.0744,29.7487,260.24,72,20,2.57,NO,1712121370
494,bouar,5.934,15.596,292.97,75,92,1.59,CF,1712121371
495,kloulklubed,7.0419,134.2556,301.43,81,99,10.08,PW,1712121371
496,guerrero negro,27.9769,-114.0611,289.91,74,0,7.07,MX,1712121371
497,obidos,-1.9175,-55.5181,297.37,96,100,1.17,BR,1712121371
498,grand falls-windsor,48.9332,-55.6649,272.87,89,100,2.68,CA,1712121364
499,qamdo,31.1667,97.2333,276.96,46,95,1.92,CN,1712121372
500,weno,7.4515,151.8468,304.12,70,40,4.12,FM,1712121372
501,island harbour,50.724,-1.2758,284.27,94,100,4.02,GB,1712121372
502,chui,-33.6971,-53.4616,287.77,80,7,2.08,UY,1712121372
503,ulaangom,49.9811,92.0667,271.15,91,100,1.68,MN,1712121372
504,magdagachi,53.45,125.8,276.39,46,99,5.17,RU,1712121373
505,shwebo,22.5667,95.7,311.39,21,0,1.07,MM,1712121373
506,borba,-4.3878,-59.5939,296.98,99,98,0.34,BR,1712121373
507,igarka,67.4667,86.5833,272.14,97,100,11.24,RU,1712121373
508,westport,41.1415,-73.3579,280.17,87,100,6.71,US,1712121112
509,lecheng,25.1238,113.3254,302.07,72,86,2.63,CN,1712121374
510,walvis bay,-22.9575,14.5053,288.76,90,0,0.57,NA,1712121374
511,roma,43.2128,-75.4557,279.31,87,100,8.23,US,1712121374
512,lazaro cardenas,17.9583,-102.2,296.51,84,15,1.03,MX,1712121374
513,prado,-17.3411,-39.2208,298.23,89,99,0.7,BR,1712121222
514,fuglafjordur,62.244,-6.814,272.41,59,100,10.02,FO,1712121375
515,ishigaki,24.3448,124.1572,298.39,88,0,10.47,JP,1712121375
516,harstad,68.799,16.5293,271.01,92,96,8.05,NO,1712121375
517,ancud,-41.8697,-73.8203,282.97,71,100,4.54,CL,1712121375
518,eraan,9.0629,117.7016,306.95,48,15,2.06,PH,1712121376
519,brisas de zicatela,15.8369,-97.0419,298.36,78,5,4.66,MX,1712121376
520,arteche,12.2645,125.4048,301.98,72,33,3.4,PH,1712121376
521,potosi,-19.5836,-65.7531,282.14,76,41,1.57,BO,1712121216
522,tashtyp,52.7939,89.8983,280.19,67,100,2.69,RU,1712121376
523,nguigmi,14.2495,13.1092,299.8,22,29,4.27,NE,1712121377
524,cole harbour,44.6724,-63.4751,275.36,86,46,2.24,CA,1712121377
525,nanao,37.05,136.9667,288.36,91,100,2.76,JP,1712121377
526,letlhakeng,-24.0944,25.0298,292.19,54,94,2.59,BW,1712121377
527,san antonio de pale,-1.4014,5.6325,301.62,79,100,2.62,GQ,1712121377
528,manaure,11.7751,-72.4445,299.51,75,78,4.79,CO,1712121378
529,usogorsk,63.4106,48.6872,263.52,92,100,4.41,RU,1712121378
530,galesong,-5.3166,119.3661,302.13,72,98,2.77,ID,1712121378
531,pervomayskoye,43.919,46.7102,286.6,61,6,8.21,RU,1712121378
532,al-hamdaniya,36.2715,43.3737,292.93,41,0,1.6,IQ,1712121379
533,i-n-salah,27.1935,2.4607,295.28,22,0,6.22,DZ,1712121379
534,tromso,69.6496,18.957,269.16,68,75,5.66,NO,1712121379
535,les avirons,-21.2418,55.3394,298.2,65,0,11.32,RE,1712121379
536,zhanaozen,43.3,52.8,286.42,43,81,7.97,KZ,1712121379
537,san pedro pochutla,15.7333,-96.4667,296.54,82,64,3.09,MX,1712121380
538,mikumi,-7.4041,36.9831,295.41,96,99,0.95,TZ,1712121380
539,breves,-1.6822,-50.4803,296.85,98,100,1.44,BR,1712121380
540,cherykaw,53.5692,31.3793,279.86,89,88,8.16,BY,1712121380
541,sao jose da coroa grande,-8.8978,-35.1478,299.97,86,91,2.02,BR,1712121380
542,krasnomayskiy,57.6194,34.4099,285.36,82,100,4.93,RU,1712121381
543,nuuk,64.1835,-51.7216,270.49,93,34,4.63,GL,1712121381
544,palau,7.503,134.621,301.13,83,100,4.12,PW,1712121381
545,maintirano,-18.0667,44.0167,299.92,75,22,2.57,MG,1712121381
546,bayevo,53.2833,80.7667,275.64,84,99,3.37,RU,1712121226
547,caburan,5.9181,125.6411,303.03,62,75,4.65,PH,1712121382
548,singarayakonda,15.25,80.0333,307.5,41,7,6.38,IN,1712121382
549,cabedelo,-6.9811,-34.8339,300.52,85,51,2.29,BR,1712121382
550,longido,-2.7333,36.6833,293.5,80,99,2.59,TZ,1712121382
551,hobyo,5.3505,48.5268,302.4,65,48,4.55,SO,1712121382
552,cam pha mines,21.0167,107.3,300.04,75,77,2.62,VN,1712121383
553,jaen,38.0,-3.5,284.22,95,42,0.5,ES,1712121301
554,saudarkrokur,65.7461,-19.6394,263.14,78,55,3.94,IS,1712121383
555,contamana,-7.3333,-75.0167,295.87,98,22,1.25,PE,1712121384
556,kimbe,-5.5502,150.1429,304.04,67,96,2.72,PG,1712121384
557,barra de santo antonio,-9.4047,-35.5072,298.75,87,60,2.06,BR,1712121384
558,axim,4.8699,-2.2405,300.51,90,90,4.55,GH,1712121384
559,ulsteinvik,62.3432,5.8487,273.65,56,71,4.92,NO,1712121384
560,mogadishu,2.0371,45.3438,302.19,71,74,2.91,SO,1712121384
561,saltillo,25.4167,-101.0,285.46,37,1,7.6,MX,1712120973
562,edd,13.9297,41.6925,304.2,58,74,5.96,ER,1712121376
563,changping,40.2186,116.2197,292.95,34,99,2.74,CN,1712121385
564,xiva,41.3783,60.3639,287.14,35,0,3.33,UZ,1712121385
565,gafsa,34.425,8.7842,286.89,63,3,1.96,TN,1712121385
566,egilsstadir,65.2653,-14.3948,260.8,93,16,2.25,IS,1712121386
567,myitkyina,25.3833,97.4,308.52,25,1,0.26,MM,1712121386
568,aitape,-3.1374,142.3475,302.03,75,89,2.09,PG,1712121386
569,lubango,-14.9172,13.4925,288.61,89,88,1.45,AO,1712121386
570,san sebastian de la gomera,28.0916,-17.1133,292.35,72,0,2.06,ES,1712121386
571,yurimaguas,-5.9,-76.0833,295.68,99,81,1.02,PE,1712121387
572,saldanha,-33.0117,17.9442,287.81,83,98,4.5,ZA,1712121387
573,askoy,60.4092,5.226,278.57,93,75,3.09,NO,1712121387
574,youhao,47.8667,128.8333,279.99,40,56,2.74,CN,1712121387
575,wenchang,30.904,118.4887,289.08,90,100,3.06,CN,1712121388
576,labrador city,52.9463,-66.9114,271.1,86,100,4.12,CA,1712121388
